City_ID,City,Lat,Lng,Max Temp,Humidity,Cloudiness,Wind Speed,Country,Date
0,levuka,50.1834,-105.4011,49.820000000000064,69,90,1.36,CA,1715229292
1,vernon,50.2581,-119.2691,58.53200000000002,43,3,1.54,CA,1715229292
2,stanley,54.868,-1.6985,51.27800000000006,89,0,1.03,GB,1715229292
3,emerald,-23.5333,148.1667,74.33600000000007,57,100,7.35,AU,1715229292
4,invercargill,-46.4,168.35,48.02000000000006,72,25,3.58,NZ,1715229293
5,villa regina,-39.1,-67.0667,46.65200000000008,46,0,4.01,AR,1715229293
6,longyearbyen,78.2186,15.6401,33.63800000000005,69,20,6.17,SJ,1715229293
7,hermanus,-34.4187,19.2345,55.22000000000006,81,0,1.86,ZA,1715229293
8,enriquillo,17.9,-71.2333,75.34400000000008,91,41,3.93,DO,1715229293
9,trujillo,-8.116,-79.03,62.564000000000036,94,75,3.6,PE,1715229126
10,progreso,21.2833,-89.6667,89.708,67,100,6.34,MX,1715229294
11,sabinanigo,42.5192,-0.3661,44.924000000000014,40,3,1.71,ES,1715229294
12,edinburgh of the seven seas,-37.0676,-12.3116,58.02800000000006,66,100,12.46,SH,1715229295
13,kingston,17.997,-76.7936,83.35400000000006,79,20,4.63,JM,1715229052
14,poronaysk,49.2167,143.1167,50.75600000000003,55,9,11.28,RU,1715229295
15,mount isa,-20.7333,139.5,89.36600000000001,45,75,4.63,AU,1715229295
16,chonchi,-42.6128,-73.8092,44.11400000000003,91,77,1.69,CL,1715229093
17,thompson,55.7435,-97.8558,44.76200000000006,65,75,0.0,CA,1715229295
18,waitangi,-43.9535,-176.5597,50.82800000000007,88,100,1.34,NZ,1715229296
19,ushuaia,-54.8,-68.3,31.658000000000005,86,0,2.06,AR,1715229296
20,adamstown,-25.066,-130.1015,71.33000000000004,78,63,3.72,PN,1715229296
21,bredasdorp,-34.5322,20.0403,51.38600000000007,90,0,1.61,ZA,1715229296
22,lihue,21.9789,-159.3672,79.84400000000008,85,100,2.57,US,1715229296
23,puerto natales,-51.7236,-72.4875,30.36200000000006,99,100,0.98,CL,1715229297
24,blackmans bay,-43.0167,147.3167,55.72400000000001,92,87,0.45,AU,1715229297
25,sao jose da coroa grande,-8.8978,-35.1478,78.13399999999999,86,27,0.84,BR,1715229297
26,bethel,41.3712,-73.414,64.76000000000008,72,0,1.54,US,1715229206
27,nuuk,64.1835,-51.7216,34.412000000000056,75,100,4.12,GL,1715229240
28,vilyuchinsk,52.9306,158.4028,52.070000000000064,71,94,5.84,RU,1715229298
29,ilulissat,69.2167,-51.1,24.818000000000087,80,100,3.09,GL,1715229298
30,dryden,49.7833,-92.7503,46.688000000000045,66,0,3.09,CA,1715229298
31,whitehorse,60.7161,-135.0538,47.01200000000006,50,75,7.72,CA,1715229010
32,bikenibeu village,1.3673,173.1241,89.56400000000004,70,20,3.09,KI,1715229298
33,saint-affrique,43.9558,2.8892,45.788000000000046,95,0,0.65,FR,1715229299
34,port-aux-francais,-49.35,70.2167,42.09800000000003,88,100,10.32,TF,1715229299
35,kotido,2.9806,34.1331,70.484,86,91,3.84,UG,1715229299
36,huarmey,-10.0681,-78.1522,66.84800000000003,92,68,2.73,PE,1715229299
37,smolensk,55.0,33.0,32.45,43,0,4.4,RU,1715229300
38,oranjemund,-28.55,16.4333,55.92200000000004,92,4,3.03,NA,1715229300
39,belyy yar,53.6039,91.3903,60.69199999999999,33,0,4.0,RU,1715229300
40,vinogradovo,56.9333,37.55,24.908000000000005,89,100,5.86,RU,1715229300
41,grytviken,-54.2811,-36.5092,26.15,67,8,3.8,GS,1715229301
42,yellowknife,62.456,-114.3525,50.41400000000003,61,75,3.6,CA,1715229301
43,bikaner,28.0167,73.3,104.09000000000002,12,0,4.71,IN,1715229301
44,tura,25.5198,90.2201,90.75200000000008,34,6,2.14,IN,1715229302
45,atafu village,-8.5421,-172.5159,85.71200000000006,70,100,2.7,TK,1715229302
46,khorixas,-20.3667,14.9667,70.03399999999999,41,35,1.51,NA,1715229302
47,mount gambier,-37.8333,140.7667,65.60600000000002,43,24,2.8,AU,1715229302
48,gadzhiyevo,69.2551,33.3362,26.78000000000004,87,99,1.05,RU,1715229303
49,qusar,41.4273,48.4289,56.174000000000014,65,100,2.4,AZ,1715229303
50,elko,41.0002,-115.5012,41.648000000000025,62,51,1.34,US,1715229303
51,bandarbeyla,9.4942,50.8122,85.40600000000003,70,49,3.35,SO,1715229304
52,iqaluit,63.7506,-68.5145,24.53000000000004,80,75,3.09,CA,1715229012
53,howrah,22.5892,88.3103,87.8,74,75,3.09,IN,1715229304
54,masterton,-40.9597,175.6575,47.87600000000009,55,89,4.43,NZ,1715229304
55,fort st. john,56.2499,-120.8529,53.492,28,75,6.69,CA,1715229304
56,birao,10.2849,22.7882,79.79000000000002,16,71,3.0,CF,1715229305
57,vegreville,53.5001,-112.0518,50.306000000000026,53,100,2.57,CA,1715229305
58,rongelap,11.1635,166.8941,80.96000000000008,78,77,8.36,MH,1715229305
59,new norfolk,-42.7826,147.0587,56.912000000000056,74,61,1.44,AU,1715229305
60,laojunmiao,39.8333,97.7333,64.00400000000005,28,100,4.79,CN,1715229306
61,kavaratti,10.5669,72.642,85.98200000000001,68,100,3.37,IN,1715229306
62,qaqortoq,60.7167,-46.0333,33.38600000000007,78,100,2.18,GL,1715229306
63,nova sintra,14.8667,-24.7167,75.56000000000009,73,12,8.65,CV,1715229306
64,kirensk,57.7853,108.1119,54.96800000000009,46,100,2.68,RU,1715229201
65,dzhangala,49.2167,50.3333,51.944000000000074,32,0,4.78,KZ,1715229307
66,papatowai,-46.5619,169.4708,44.312000000000054,69,24,4.91,NZ,1715229307
67,enewetak,11.3474,162.3373,81.64400000000008,79,57,8.38,MH,1715229307
68,anatuya,-28.4606,-62.8347,48.056000000000026,47,5,2.91,AR,1715229307
69,haibara-akanedai,34.5333,135.95,60.458000000000006,37,49,6.58,JP,1715229307
70,tarrafal,15.2833,-23.7667,74.192,80,18,4.64,CV,1715229308
71,qa'en,33.7265,59.1844,64.45400000000005,67,54,5.83,IR,1715229308
72,talnakh,69.4865,88.3972,20.210000000000083,77,35,0.99,RU,1715229308
73,badger,64.8,-147.5333,59.360000000000085,37,75,5.66,US,1715229308
74,callao,-12.0667,-77.15,68.72000000000006,88,100,1.54,PE,1715229155
75,quelimane,-17.8786,36.8883,67.94600000000005,100,20,0.86,MZ,1715229309
76,sandnessjoen,66.0217,12.6316,37.92200000000004,88,100,9.42,NO,1715229309
77,west island,-12.1568,96.8225,84.18200000000002,74,19,5.66,CC,1715229310
78,utrik,11.2278,169.8474,81.158,78,74,8.39,MH,1715229310
79,avarua,-21.2078,-159.775,82.45400000000005,89,75,3.6,CK,1715229310
80,vorkuta,67.5,64.0,21.11000000000008,85,100,6.71,RU,1715229137
81,xining,36.6167,101.7667,70.808,32,29,2.86,CN,1715229311
82,anadyr,64.75,177.4833,23.504000000000055,67,20,7.0,RU,1715229311
83,magadan,59.5667,150.8,37.52600000000009,81,53,1.89,RU,1715229311
84,ust-nera,64.5667,143.2,42.20600000000003,59,90,2.39,RU,1715229311
85,georgetown,5.4112,100.3354,91.34600000000005,58,20,3.6,MY,1715229014
86,vorgashor,67.5833,63.95,20.804000000000052,85,100,9.0,RU,1715229312
87,show low,34.2542,-110.0298,50.288000000000046,38,0,1.54,US,1715229312
88,st. john's,47.5649,-52.7093,41.97200000000004,95,100,5.14,CA,1715229073
89,betio village,1.358,172.9211,89.63600000000007,74,66,4.41,KI,1715229312
90,keflavik,64.0049,-22.5624,35.51000000000008,75,40,2.06,IS,1715229312
91,puerto ayora,-0.7393,-90.3518,75.542,98,100,1.34,EC,1715229313
92,olonkinbyen,70.9221,-8.7187,26.69000000000002,92,100,16.2,SJ,1715229313
93,udachny,66.4167,112.4,19.454000000000054,89,89,6.45,RU,1715229313
94,borogontsy,62.6683,131.1683,40.04600000000005,57,100,4.88,RU,1715229314
95,lulea,65.5842,22.1547,33.872000000000035,80,0,2.57,SE,1715229315
96,bonthe,7.5264,-12.505,81.23000000000005,84,100,1.61,SL,1715229315
97,floriano,-6.7669,-43.0225,78.36800000000008,60,98,1.78,BR,1715229315
98,savonlinna,61.8699,28.88,33.854000000000056,60,0,2.57,FI,1715229025
99,tolanaro,-25.0319,46.9987,71.67200000000004,94,40,4.12,MG,1715229316
100,lompoc,34.6391,-120.4579,57.02000000000006,87,0,1.54,US,1715229316
101,san patricio,28.017,-97.5169,82.34600000000005,90,95,4.93,US,1715229316
102,nianzishan,47.5167,122.8833,71.99600000000005,12,78,3.49,CN,1715229317
103,hamilton,39.1834,-84.5333,71.69000000000003,87,0,2.57,US,1715228758
104,albany,42.6001,-73.9662,58.58600000000007,72,41,0.89,US,1715228742
105,margaret river,-33.95,115.0667,71.67200000000004,38,100,7.77,AU,1715229317
106,tabou,4.423,-7.3528,80.2760000000001,86,90,2.15,CI,1715229317
107,klyuchi,52.2667,79.1667,70.61000000000008,34,45,5.07,RU,1715229317
108,viqueque,-8.8673,126.3658,85.64000000000001,57,30,3.33,TL,1715229318
109,vila velha,-20.3297,-40.2925,75.93800000000005,95,0,1.03,BR,1715229062
110,ola,59.5833,151.2833,38.13800000000005,77,55,2.68,RU,1715229318
111,ketchikan,55.3422,-131.6461,48.668000000000085,87,75,3.09,US,1715229318
112,trevelin,-43.0858,-71.4639,38.67800000000007,99,89,0.43,AR,1715229318
113,warrenton,-28.114,24.8475,59.774000000000015,31,0,4.44,ZA,1715229319
114,anna regina,7.2644,-58.5077,80.87000000000006,81,100,4.28,GY,1715229319
115,jamestown,42.097,-79.2353,53.18600000000007,87,0,4.12,US,1715229319
116,siocon,7.7061,122.1353,84.88399999999999,70,51,2.08,PH,1715229319
117,wewak,-3.5534,143.6268,82.79600000000005,82,91,1.14,PG,1715229319
118,tazacorte,28.629,-17.9293,68.14400000000008,83,0,2.06,ES,1715229319
119,bilibino,68.0546,166.4372,36.03200000000002,78,35,0.9,RU,1715229142
120,shalkar,47.8288,59.6258,56.24600000000005,77,93,10.35,KZ,1715229320
121,hammerfest,70.6634,23.6821,36.05,48,80,5.66,NO,1715229320
122,mendi,-6.1761,143.6513,59.32400000000001,99,100,0.93,PG,1715229320
123,kodiak,57.79,-152.4072,36.91400000000003,70,100,4.63,US,1715229320
124,tadine,-21.55,167.8833,71.02400000000002,65,47,8.08,NC,1715229321
125,houghton,47.1219,-88.569,48.02000000000006,75,0,4.12,US,1715229321
126,lohja,60.2486,24.0653,39.182000000000016,48,95,1.67,FI,1715229321
127,ormara,25.2088,64.6357,81.842,79,0,2.72,PK,1715229321
128,constitucion,-35.3333,-72.4167,45.68000000000004,74,6,2.49,CL,1715229321
129,port mathurin,-19.6833,63.4167,77.99000000000002,73,98,10.94,MU,1715229321
130,dudinka,69.4058,86.1778,20.678000000000065,89,82,5.36,RU,1715229141
131,wailua homesteads,22.0669,-159.378,79.23200000000001,88,100,2.57,US,1715229322
132,minas de marcona,-15.2119,-75.1103,56.858000000000004,90,92,5.28,PE,1715229323
133,murray bridge,-35.1167,139.2667,68.342,36,100,3.23,AU,1715229323
134,borovskoy,53.8,64.15,67.19000000000003,55,32,7.59,KZ,1715229323
135,la passe,45.5549,-0.8967,52.03399999999999,91,20,4.74,FR,1715229323
136,igarka,67.4667,86.5833,31.010000000000083,99,100,5.81,RU,1715229324
137,muroto-misakicho,33.2833,134.15,61.25,54,21,6.7,JP,1715229324
138,east london,-33.0153,27.9116,63.53600000000007,100,0,0.51,ZA,1715229182
139,kailua-kona,19.6406,-155.9956,80.56400000000004,77,40,4.12,US,1715229324
140,yorkton,51.2167,-102.4677,49.838000000000044,66,40,1.03,CA,1715229324
141,khonsa,27.0167,95.5667,75.21800000000009,76,100,1.38,IN,1715229325
142,nhamunda,-2.1861,-56.7131,75.23600000000008,96,80,0.77,BR,1715229325
143,nar'yan-mar,67.6713,53.087,23.108000000000004,88,100,7.15,RU,1715229325
144,isafjordur,66.0755,-23.124,33.89000000000002,79,20,5.72,IS,1715229326
145,aginskoye,51.1,114.53,65.24600000000005,19,100,6.64,RU,1715229326
146,tiksi,71.6872,128.8694,29.462000000000057,82,83,2.95,RU,1715229326
147,thunder bay,48.4001,-89.3168,48.182000000000016,57,20,4.12,CA,1715229188
148,port elizabeth,-33.918,25.5701,64.68800000000005,82,100,1.03,ZA,1715229326
149,ath thawrah,35.8469,38.5443,69.81800000000008,46,2,0.87,SY,1715229327
150,iacu,-12.7672,-40.2117,68.72000000000006,94,0,1.55,BR,1715229327
151,shakawe,-18.3667,21.85,59.108000000000004,45,2,2.28,BW,1715229327
152,kyakhta,50.3508,106.4494,60.944000000000074,30,100,5.29,RU,1715229327
153,jianguang,28.1938,115.7836,76.658,56,100,2.42,CN,1715229327
154,naantali,60.4674,22.0243,38.372000000000035,60,100,1.54,FI,1715229328
155,siquirres,10.0975,-83.5066,75.65,95,100,0.8,CR,1715229204
156,remire-montjoly,4.9167,-52.2667,77.03600000000007,100,75,2.06,GF,1715229328
157,iskateley,67.6803,53.1512,23.018000000000086,88,100,7.15,RU,1715229328
158,raja,8.4596,25.678,80.85200000000007,32,53,1.19,SS,1715229329
159,gunnedah,-30.9833,150.25,73.36400000000003,41,22,3.37,AU,1715229329
160,buncrana,55.1333,-7.45,45.806000000000026,93,75,2.55,IE,1715229329
161,port allen,30.4521,-91.2101,82.54400000000007,82,100,6.17,US,1715229330
162,poso,-1.3959,120.7524,84.2,79,100,1.92,ID,1715229330
163,morant bay,17.8815,-76.4093,83.82200000000003,87,85,3.36,JM,1715229330
164,acarau,-2.8856,-40.12,77.28800000000004,91,68,4.1,BR,1715229122
165,uturoa,-16.7333,-151.4333,82.00400000000005,77,69,5.78,PF,1715229330
166,glace bay,46.1969,-59.957,39.84800000000003,87,100,3.09,CA,1715229320
167,akureyri,65.6835,-18.0878,37.32800000000007,56,0,3.6,IS,1715229331
168,north myrtle beach,33.816,-78.68,73.49000000000002,90,0,3.6,US,1715229331
169,floresville,29.1336,-98.1561,83.35400000000006,90,57,3.82,US,1715229331
170,duyun,26.2667,107.5167,68.77400000000002,85,100,0.33,CN,1715229332
171,bykovo,55.6361,38.0803,32.360000000000085,76,40,12.96,RU,1715229332
172,bouna,9.2667,-3.0,76.316,88,76,2.47,CI,1715229332
173,port saint john's,-31.6229,29.5448,65.75,85,0,1.66,ZA,1715229332
174,aykhal,66.0,111.5,23.324000000000012,76,89,7.15,RU,1715229203
175,bumba,2.1833,22.4667,74.57000000000006,93,84,1.17,CD,1715229332
176,ciudad bolivar,8.1222,-63.5497,83.91200000000006,66,69,4.71,VE,1715229333
177,tual,-5.6667,132.75,83.192,74,34,6.68,ID,1715229333
178,penzance,50.1186,-5.5371,51.76400000000003,89,93,4.82,GB,1715229333
179,sanibel,26.449,-82.0223,81.01400000000004,81,11,4.47,US,1715229333
180,kismayo,-0.3582,42.5454,80.22200000000004,85,93,5.77,SO,1715229333
181,sidi ifni,29.3797,-10.173,64.14800000000002,77,100,0.38,MA,1715229334
182,bloomfield,40.8068,-74.1854,73.43600000000006,48,0,4.12,US,1715229334
183,domna,51.8971,113.1573,60.96200000000006,18,100,2.0,RU,1715229334
184,dakhla,23.6848,-15.958,64.67000000000006,90,98,5.65,EH,1715229334
185,recani,31.2846,-4.2688,70.05200000000008,22,0,2.8,MA,1715229334
186,selfoss,63.9331,-20.9971,36.68000000000004,73,51,1.12,IS,1715229334
187,diamantino,-14.4086,-56.4461,73.09400000000008,69,29,2.6,BR,1715229335
188,kapa'a,22.0752,-159.319,80.58200000000002,87,100,2.57,US,1715229183
189,saipan,15.1355,145.701,92.10200000000007,58,40,7.72,MP,1715229335
190,grodkow,50.6984,17.3845,45.14000000000002,76,13,2.15,PL,1715229335
191,paracuru,-3.41,-39.0306,81.10400000000006,93,69,3.56,BR,1715229335
192,baardheere,2.3446,42.2764,78.22400000000002,86,88,5.94,SO,1715229335
193,macau,22.2006,113.5461,82.20200000000008,69,20,8.23,MO,1715229336
194,severo-yeniseyskiy,60.3725,93.0408,34.57400000000001,98,100,4.47,RU,1715229336
195,aasiaat,68.7098,-52.8699,13.928000000000065,80,26,3.3,GL,1715229336
196,chon daen,16.1895,100.8596,95.19800000000002,39,74,2.72,TH,1715229336
197,reyes,-14.3167,-67.3833,76.22600000000008,88,45,0.59,BO,1715229336
198,hithadhoo,-0.6,73.0833,84.56000000000009,75,83,5.66,MV,1715229337
199,tafuna,-14.3358,-170.72,84.308,76,96,5.02,AS,1715229337
200,yakeshi,49.2833,120.7333,65.31800000000008,14,98,3.79,CN,1715229337
201,massawa,15.6097,39.45,84.34400000000008,66,65,2.98,ER,1715229337
202,mana,5.6592,-53.7767,79.64600000000004,86,99,4.78,GF,1715229337
203,fale old settlement,-9.3852,-171.2468,84.45200000000008,74,61,2.27,TK,1715229338
204,carnarvon,-24.8667,113.6333,78.65600000000003,45,99,3.48,AU,1715229338
205,gurupa,-1.405,-51.64,74.75,99,70,1.11,BR,1715229338
206,ulmeni,47.4667,23.3,55.562000000000054,87,100,1.91,RO,1715229338
207,port lincoln,-34.7333,135.8667,63.08600000000007,65,5,4.71,AU,1715229339
208,ribeira grande,38.5167,-28.7,58.766000000000005,85,91,1.79,PT,1715229339
209,tralee,52.2704,-9.7026,47.42600000000009,91,99,2.01,IE,1715229206
210,virginia beach,36.8529,-75.978,79.016,87,20,3.6,US,1715229193
211,bamboo flat,11.7,92.7167,93.29000000000002,59,40,3.6,IN,1715229339
212,balikpapan,-1.2675,116.8289,81.59000000000002,89,40,2.57,ID,1715229340
213,jitra,6.2681,100.4217,93.092,59,20,1.03,MY,1715229340
214,luanda,-8.8368,13.2343,78.8,94,75,1.54,AO,1715229340
215,ciudad lazaro cardenas,17.9583,-102.2,74.42600000000009,82,42,0.92,MX,1715229340
216,lethem,3.3803,-59.7968,78.15200000000007,87,100,2.21,GY,1715229341
217,neftegorsk,52.802,51.166,36.391999999999996,54,5,3.76,RU,1715229341
218,hasaki,35.7333,140.8333,59.39600000000005,73,100,10.02,JP,1715229341
219,auki,-8.7676,160.7034,78.74600000000005,92,100,1.61,SB,1715229341
220,haiku-pauwela,20.9219,-156.3051,75.16400000000003,75,20,9.77,US,1715229341
221,murzuq,25.9155,13.9184,72.64400000000008,26,10,5.43,LY,1715229341
222,constantia,44.1833,28.65,54.69800000000002,78,89,7.3,RO,1715229342
223,erenhot,43.6475,111.9767,80.00600000000003,26,100,9.83,CN,1715229342
224,hadibu,12.65,54.0333,85.91000000000008,64,16,1.08,YE,1715229342
225,cambria,35.5641,-121.0808,69.76400000000004,59,0,1.23,US,1715229342
226,itai,-23.4178,-49.0906,66.45200000000008,64,0,1.57,BR,1715229343
227,jumla,29.2747,82.1838,61.73600000000007,53,89,2.61,NP,1715229343
228,afaahiti,-17.75,-149.2833,78.674,80,78,7.78,PF,1715229343
229,novyy urgal,51.0736,132.5642,49.24400000000007,37,100,7.71,RU,1715229139
230,sake,-1.5736,29.045,66.02000000000007,97,98,1.17,CD,1715229343
231,novodvinsk,64.4165,40.8122,27.788000000000046,59,100,6.9,RU,1715229344
232,novoishimskiy,53.1981,66.7694,69.54800000000003,56,62,8.82,KZ,1715229344
233,tsiombe,-25.3,45.4833,72.10400000000006,71,0,2.3,MG,1715229344
234,isiro,2.7739,27.616,71.042,89,89,1.37,CD,1715229344
235,codrington,-38.2667,141.9667,66.66800000000009,49,73,3.06,AU,1715229344
236,kristinestad,62.2743,21.376,35.096000000000046,78,90,3.33,FI,1715229345
237,sao paulo de olivenca,-3.3783,-68.8725,76.40600000000003,97,100,0.29,BR,1715229345
238,colonia,50.9333,6.95,49.964000000000034,91,100,1.03,DE,1715229329
239,flying fish cove,-10.4217,105.6791,83.87600000000009,78,75,6.69,CX,1715229345
240,nouadhibou,20.931,-17.0347,64.38200000000002,94,75,5.66,MR,1715229345
241,mokhsogollokh,61.4681,128.9203,41.233999999999995,47,100,4.2,RU,1715229346
242,saldanha,-33.0117,17.9442,41.05400000000005,82,0,3.53,ZA,1715229346
243,chernyshevskiy,63.0128,112.4714,32.45,78,80,2.9,RU,1715229346
244,oltinko'l,40.8011,72.1634,90.42800000000007,20,23,3.37,UZ,1715229346
245,young,-32.6833,-57.6333,43.43000000000004,79,0,2.91,UY,1715229346
246,hilo,19.7297,-155.09,74.93000000000004,86,75,3.09,US,1715229346
247,susuman,62.7833,148.1667,35.978000000000065,68,65,0.45,RU,1715229347
248,dholka,22.7167,72.4667,89.97800000000007,26,5,3.63,IN,1715229347
249,neryungri,56.6709,124.6491,32.18000000000004,84,100,3.96,RU,1715229347
250,porto novo,6.4965,2.6036,82.22000000000006,82,100,1.23,BJ,1715229137
251,mao,39.8885,4.2658,61.358000000000004,77,0,4.12,ES,1715229348
252,tomatlan,19.9333,-105.25,68.32400000000001,90,12,0.27,MX,1715229348
253,touros,-5.1989,-35.4608,77.59400000000008,90,41,2.97,BR,1715229348
254,guanica,17.9716,-66.908,79.86200000000005,61,1,2.46,PR,1715229348
255,kralendijk,12.15,-68.2667,82.38200000000002,89,20,7.2,BQ,1715229348
256,lata,40.1629,-8.3327,55.07600000000009,59,100,2.08,PT,1715229348
257,damavand,35.7178,52.065,50.791999999999994,50,17,1.54,IR,1715229349
258,camanducaia,-22.7553,-46.1447,60.044000000000075,86,20,2.35,BR,1715229349
259,pisco,-13.7,-76.2167,66.25400000000005,88,10,2.06,PE,1715229349
260,mili,6.0815,171.735,82.99400000000007,81,28,6.53,MH,1715229349
261,wenatchee,47.4235,-120.3103,61.17800000000007,50,4,2.11,US,1715229349
262,nanao,37.05,136.9667,62.33000000000004,45,24,2.61,JP,1715229349
263,port alfred,-33.5906,26.891,61.17800000000007,99,55,1.34,ZA,1715229350
264,muana,-1.5283,-49.2167,76.06400000000004,95,100,0.7,BR,1715229350
265,coahuayana de hidalgo,18.7,-103.6583,70.03399999999999,92,60,1.15,MX,1715229350
266,tazovsky,67.4667,78.7,18.824000000000012,87,14,3.25,RU,1715229350
267,cidade velha,14.9167,-23.6167,73.86800000000008,60,0,3.09,CV,1715229350
268,imperia,43.9667,7.7833,58.94600000000005,83,87,4.13,IT,1715229350
269,pacific grove,36.6177,-121.9166,62.27600000000009,72,0,1.34,US,1715229351
270,urbano santos,-3.2078,-43.4036,75.11000000000008,94,21,0.08,BR,1715229351
271,qarazhal,48.0078,70.7903,68.88200000000002,37,100,10.16,KZ,1715229351
272,taulaga,-11.0553,-171.0883,84.68600000000006,74,100,4.3,AS,1715229351
273,laguna,38.421,-121.4238,72.28399999999999,28,0,4.63,US,1715229351
274,robore,-18.3333,-59.75,72.5,88,77,1.53,BO,1715229352
275,paredes,40.0658,-2.854,48.95600000000003,68,21,2.15,ES,1715229352
276,madalena,41.2162,-8.3345,62.294000000000075,63,100,2.23,PT,1715229352
277,linares,-35.85,-71.6,37.688000000000045,78,9,1.61,CL,1715229352
278,antofagasta,-23.65,-70.4,60.08000000000004,90,98,1.61,CL,1715229352
279,belogorsk,50.9158,128.4611,57.938000000000045,17,2,9.52,RU,1715229353
280,alice springs,-23.7,133.8833,74.75,35,40,6.17,AU,1715229353
281,kaiapoi,-43.3783,172.6401,49.46000000000008,58,20,2.57,NZ,1715229353
282,portland,45.5234,-122.6762,62.582000000000015,49,20,4.12,US,1715229081
283,bardai,11.65,7.2333,77.52200000000003,64,65,4.33,NG,1715229353
284,belmonte,-15.8631,-38.8828,75.542,89,51,1.58,BR,1715229353
285,punta arenas,-53.15,-70.9167,37.508,87,75,3.6,CL,1715229092
286,isangel,-19.55,169.2667,77.108,53,75,3.09,VU,1715229354
287,rabaul,-4.1967,152.1721,79.75400000000005,87,100,4.62,PG,1715229354
288,lipayran,11.0593,123.6342,82.79600000000005,78,99,5.86,PH,1715229354
289,bayji,34.9311,43.487,73.13000000000004,35,2,1.74,IQ,1715229354
290,tommot,58.9564,126.2925,38.67800000000007,62,100,4.51,RU,1715229354
291,santiago de cao,-7.9589,-79.2392,62.72600000000009,94,75,3.6,PE,1715229355
292,eirunepe,-6.6603,-69.8736,75.92000000000006,97,100,0.52,BR,1715229355
293,zhalantun,48.0,122.7167,72.48200000000001,12,94,2.87,CN,1715229355
294,nova vicosa,-17.8919,-39.3719,75.48800000000004,89,6,0.29,BR,1715229355
295,russkaya polyana,49.417,31.9201,47.030000000000044,61,97,5.28,UA,1715229355
296,tulun,54.5611,100.5792,51.56600000000001,34,64,8.98,RU,1715229356
297,vrontados,38.4089,26.1328,62.45600000000003,88,20,0.0,GR,1715229356
298,namibe,-15.1961,12.1522,74.35400000000006,63,6,3.03,AO,1715229356
299,sabha,27.0377,14.4283,67.74800000000002,48,17,7.36,LY,1715229356
300,mount darwin,-16.7725,31.5838,57.182000000000016,81,0,1.21,ZW,1715229356
301,el granada,37.5027,-122.4694,75.092,53,0,4.12,US,1715229357
302,bam,29.106,58.357,85.26200000000006,18,0,3.97,IR,1715229357
303,brookings,44.3114,-96.7984,55.4,78,0,1.54,US,1715229219
304,lyndon,38.2567,-85.6016,65.91200000000006,94,100,4.63,US,1715229260
305,kruisfontein,-34.0033,24.7314,57.88399999999999,89,10,1.67,ZA,1715229357
306,cabo san lucas,22.8909,-109.9124,79.61000000000008,53,0,5.14,MX,1715229267
307,qamdo,31.1667,97.2333,52.88000000000004,32,100,3.33,CN,1715229358
308,sitka,57.0531,-135.33,41.86400000000003,94,100,2.0,US,1715229358
309,udesti,47.5667,26.4167,53.90600000000003,86,0,4.12,RO,1715229358
310,chifeng,42.2683,118.9636,75.07400000000001,17,56,5.67,CN,1715229359
311,dumbea,-22.15,166.45,75.16400000000003,73,88,4.5,NC,1715229359
312,vadso,70.0744,29.7487,28.562000000000058,74,100,2.06,NO,1715229359
313,tunceli,39.1083,39.5471,59.27000000000006,45,1,0.73,TR,1715229359
314,kalevala,65.2,31.1667,19.094000000000072,98,94,1.34,RU,1715229359
315,tutoia,-2.7619,-42.2744,76.24400000000007,85,92,1.84,BR,1715229359
316,shemysheyka,52.892,45.3928,37.04000000000002,64,55,8.36,RU,1715229360
317,cidreira,-30.1811,-50.2056,66.03800000000004,86,52,5.53,BR,1715229250
318,aioun,16.6614,-9.6149,88.30400000000006,6,80,4.48,MR,1715229360
319,al jawf,29.5,38.75,72.71600000000001,15,2,8.53,SA,1715229360
320,broome,42.2506,-75.833,55.88600000000007,84,0,3.09,US,1715229360
321,coronel suarez,-37.4547,-61.9334,40.49600000000005,46,0,3.84,AR,1715229360
322,richards bay,-28.783,32.0377,66.95600000000003,87,1,1.96,ZA,1715229361
323,juneau,58.3019,-134.4197,46.4,93,100,5.66,US,1715229129
324,iron mountain,45.8202,-88.066,51.62000000000006,66,100,2.06,US,1715229361
325,collie,-33.3667,116.15,69.18800000000005,36,100,4.38,AU,1715229361
326,kavieng,-2.5744,150.7967,82.292,82,100,4.47,PG,1715229361
327,hawaiian paradise park,19.5933,-154.9731,74.71400000000003,85,75,3.09,US,1715229362
328,dwarka,22.2394,68.9678,84.29000000000002,72,0,4.18,IN,1715229362
329,kapuskasing,49.4169,-82.4331,44.6,70,100,3.09,CA,1715229122
330,pimentel,-6.8367,-79.9342,70.08800000000005,78,0,5.14,PE,1715229362
331,qurayyat,31.3318,37.3428,60.98000000000004,21,0,2.06,SA,1715229363
332,arraial do cabo,-22.9661,-42.0278,74.516,92,4,6.79,BR,1715229363
333,gumla,23.05,84.55,89.42000000000006,35,54,3.17,IN,1715229363
334,tegueste,28.5167,-16.3167,69.08000000000004,39,0,5.14,ES,1715229363
335,kristiansund,63.1115,7.732,47.04800000000002,87,75,2.57,NO,1715229363
336,uliastay,47.7417,96.8444,54.248000000000026,35,99,4.13,MN,1715229364
337,slavgorod,52.9978,78.6449,69.26000000000008,37,78,5.72,RU,1715229364
338,saudarkrokur,65.7461,-19.6394,35.61800000000009,81,14,5.23,IS,1715229364
339,ust'-barguzin,53.45,108.9833,45.17600000000009,50,89,3.14,RU,1715229364
340,suances,43.4334,-4.0434,57.97400000000001,97,0,3.09,ES,1715229364
341,mersing,2.4312,103.8405,94.91000000000008,71,40,4.12,MY,1715229364
342,cockburn town,21.4612,-71.1419,76.87400000000001,74,77,7.0,TC,1715229330
343,kerikeri,-35.2268,173.9474,63.91400000000003,60,76,2.24,NZ,1715229365
344,coquimbo,-29.9533,-71.3436,53.33000000000004,87,0,1.03,CL,1715229092
345,salto,-31.3833,-57.9667,48.86600000000001,80,0,0.89,UY,1715229350
346,bengkulu,-3.8004,102.2655,86.342,65,21,2.96,ID,1715229365
347,hami,42.8,93.45,75.61400000000003,26,96,2.3,CN,1715229366
348,cromer,52.9312,1.2989,53.07800000000007,83,100,4.04,GB,1715229258
349,viedma,-40.8135,-62.9967,42.674000000000014,59,0,3.33,AR,1715229298
350,westport,41.1415,-73.3579,68.21600000000001,70,0,3.6,US,1715229315
351,aquidauana,-20.4711,-55.7872,77.25200000000008,53,32,1.47,BR,1715229366
352,kudahuvadhoo,2.6708,72.8944,85.1,72,100,3.7,MV,1715229367
353,finote selam,10.7,37.2667,75.11000000000008,39,68,0.92,ET,1715229367
354,grand falls-windsor,48.9332,-55.6649,41.504000000000055,85,88,2.9,CA,1715229367
355,darnah,32.767,22.6367,65.66000000000008,82,22,8.34,LY,1715229367
356,walvis bay,-22.9575,14.5053,58.082000000000015,82,89,2.93,NA,1715229367
357,ataq,14.5377,46.8319,80.79800000000003,42,84,3.93,YE,1715229367
358,brandfort,-28.7001,26.4597,44.00600000000003,31,0,3.51,ZA,1715229368
359,fort bragg,35.139,-79.006,71.43800000000005,83,0,4.12,US,1715229368
360,sao vicente,-23.9631,-46.3919,84.27200000000003,26,40,2.74,BR,1715229109
361,pita,10.8333,-12.5833,75.66800000000009,90,100,0.17,GN,1715229368
362,sarmiento,-45.5882,-69.07,43.30400000000005,68,80,2.45,AR,1715229308
363,praia da vitoria,38.7333,-27.0667,61.05200000000008,94,40,3.85,PT,1715229369
364,eldorado,-23.7869,-54.2836,71.79800000000003,88,69,3.28,BR,1715229210
365,narauli,28.5,78.7167,93.21800000000009,32,0,7.1,IN,1715229369
366,changji,44.0167,87.3167,74.192,38,0,3.0,CN,1715229369
367,bel ombre,-4.6167,55.4167,78.63800000000005,89,40,3.09,SC,1715229369
368,masuguru,-11.3667,38.4167,71.83399999999999,85,10,1.74,TZ,1715229370
369,souillac,-20.5167,57.5167,77.37800000000007,65,75,6.69,MU,1715229370
370,bankura,23.25,87.0667,80.69000000000003,47,55,2.48,IN,1715229370
371,petropavlovsk-kamchatsky,53.0452,158.6483,50.59400000000007,67,75,9.0,RU,1715229370
372,tarko-sale,64.9225,77.785,31.333999999999993,97,99,2.77,RU,1715229371
373,pulandian,39.3953,121.9669,77.54000000000002,31,93,4.2,CN,1715229371
374,kununurra,-15.7667,128.7333,89.58200000000002,33,66,6.17,AU,1715229122
375,karratha,-20.7377,116.8463,84.81200000000005,26,12,8.37,AU,1715229371
376,ancud,-41.8697,-73.8203,48.77600000000009,70,99,5.66,CL,1715229096
377,mil'kovo,55.6078,37.7956,32.14400000000008,80,54,6.74,RU,1715229372
378,finley,46.154,-119.0339,62.74400000000007,53,0,3.13,US,1715229372
379,vila franca do campo,37.7167,-25.4333,64.88600000000007,99,65,2.75,PT,1715229372
380,margate,51.3813,1.3862,45.30200000000008,93,100,2.2,GB,1715229372
381,sigli,5.3848,95.9609,86.93600000000006,65,98,3.24,ID,1715229373
382,okha,53.5739,142.9478,44.258,57,94,9.39,RU,1715229139
383,baruun-urt,46.6806,113.2792,70.88000000000004,14,100,5.27,MN,1715229373
384,al mijlad,11.0333,27.7333,81.30200000000008,13,17,3.24,SD,1715229373
385,port-gentil,-0.7193,8.7815,80.63600000000007,88,100,4.1,GA,1715229373
386,san antonio de pale,-1.4014,5.6325,80.43800000000005,87,17,3.74,GQ,1715229374
387,yamada,39.4667,141.95,47.498000000000026,77,100,2.22,JP,1715229374
388,saurimo,-9.6608,20.3916,65.24600000000005,69,80,2.46,AO,1715229374
389,queenstown,-31.8976,26.8753,53.72600000000009,62,9,1.77,ZA,1715229374
390,puerto deseado,-47.7503,-65.8938,41.360000000000085,74,50,3.15,AR,1715229079
391,tucuma,-0.1833,-50.05,77.14400000000008,93,98,2.51,BR,1715229375
392,zuyevka,58.405,51.1335,31.172000000000036,63,97,6.51,RU,1715229375
393,jayanca,-6.3908,-79.8219,69.40400000000005,75,88,2.99,PE,1715229375
394,egilsstadir,65.2653,-14.3948,30.11000000000008,93,0,1.54,IS,1715229375
395,lebu,-37.6167,-73.65,45.68000000000004,85,33,1.75,CL,1715229088
396,sorong,-0.8833,131.25,83.642,72,100,2.29,ID,1715229376
397,santa cruz,-17.8,-63.1667,71.06000000000009,100,75,4.12,BO,1715229287
398,ghadamis,30.1337,9.5007,61.088000000000044,63,96,2.85,LY,1715229376
399,kuala tungkal,-0.8167,103.4667,88.68200000000002,65,22,1.71,ID,1715229376
400,hirara,24.8,125.2833,78.65600000000003,61,75,6.69,JP,1715229376
401,jijiga,9.35,42.8,70.26800000000009,74,92,3.31,ET,1715229377
402,mejit,10.2753,170.8646,81.68000000000004,83,85,8.54,MH,1715229377
403,tannum sands,-23.9504,151.3693,70.75400000000005,88,75,3.6,AU,1715229377
404,santa luzia,-19.7697,-43.8514,65.3,94,0,0.0,BR,1715229138
405,mirnyy,62.5353,113.9611,29.228000000000065,85,78,2.24,RU,1715229377
406,whitehouse,32.2268,-95.2255,80.51000000000008,78,41,2.24,US,1715229378
407,tanjung pandan,-2.75,107.65,90.12200000000004,55,53,2.12,ID,1715229378
408,jolalpan,18.325,-98.8417,83.33600000000007,29,97,1.3,MX,1715229378
409,luderitz,-26.6481,15.1594,58.37000000000006,79,0,6.63,NA,1715229378
410,ocean shores,46.9737,-124.1563,53.024000000000015,86,0,3.13,US,1715229379
411,nova xavantina,-14.6667,-52.35,68.84600000000005,73,0,1.06,BR,1715229379
412,fortuna,40.5982,-124.1573,51.65600000000003,91,0,0.0,US,1715229379
413,rakovski,42.3,24.9667,57.056000000000026,93,100,2.98,BG,1715229379
414,jinchang,38.4953,102.1739,78.38600000000007,15,68,10.7,CN,1715229379
415,lindi,-10.0,39.7167,74.13800000000005,92,71,2.88,TZ,1715229380
416,fort mcmurray,56.7268,-111.381,54.98600000000007,32,0,3.6,CA,1715229380
417,arvika,59.6553,12.5852,41.61200000000006,89,99,2.05,SE,1715229380
418,guarapari,-20.6667,-40.4975,75.88399999999999,87,0,2.21,BR,1715229101
419,camana,-16.6228,-72.7111,65.33600000000007,93,99,3.06,PE,1715229301
420,horta,38.5333,-28.6333,58.01000000000008,85,92,1.79,PT,1715229380
421,antonio enes,-16.2325,39.9086,78.83600000000007,69,0,4.45,MZ,1715229381
422,ayr,55.4627,-4.6339,54.320000000000064,94,75,3.09,GB,1715229085
423,kill devil hills,36.0307,-75.676,80.6,72,0,7.72,US,1715229381
424,khabarovsk,48.4808,135.0928,60.602000000000075,34,0,11.18,RU,1715229381
425,chul'man,56.8479,124.9104,32.27000000000006,81,100,5.36,RU,1715229381
426,sarioglan,39.0769,35.9667,58.478000000000065,42,23,1.43,TR,1715229381
427,porbandar,21.6422,69.6093,85.60400000000006,64,0,4.35,IN,1715229382
428,buka,40.8108,69.1986,86.88200000000002,28,73,2.1,UZ,1715229382
429,roja,57.5,22.8167,36.860000000000085,94,100,4.18,LV,1715229382
430,takoradi,4.8845,-1.7554,81.75200000000008,85,99,2.37,GH,1715229382
431,careiro da varzea,-3.2003,-59.8119,79.43000000000004,91,78,1.24,BR,1715229383
432,antalaha,-14.9003,50.2788,75.74000000000002,83,87,3.75,MG,1715229383
433,toliara,-23.35,43.6667,74.80400000000006,62,0,3.26,MG,1715229383
434,kone,-21.0595,164.8658,77.342,49,0,6.34,NC,1715229383
435,amuntai,-2.4177,115.2494,88.17800000000007,67,83,1.07,ID,1715229383
436,egersund,58.4513,5.9997,49.37000000000006,92,100,2.45,NO,1715229384
437,ebaye,8.7748,167.7392,86.01800000000009,74,0,8.23,MH,1715229384
438,mawu,29.5923,107.3139,74.76800000000009,58,100,0.37,CN,1715229384
439,barranca,-10.75,-77.7667,66.38000000000004,88,97,2.04,PE,1715229384
440,namdrik,5.5994,168.1028,82.77800000000006,80,72,6.74,MH,1715229384
441,buffalo,42.8865,-78.8784,53.69000000000002,84,75,4.63,US,1715228894
442,dul'durga,50.6761,113.5931,60.728000000000065,28,100,6.14,RU,1715229385
443,askiz,53.1319,90.5264,62.20400000000005,44,100,3.63,RU,1715229385
444,alofi,-19.0595,-169.9187,75.092,94,100,4.63,NU,1715229385
445,north palm beach,26.8176,-80.082,80.63600000000007,83,100,4.12,US,1715229260
446,laem sing,12.4816,102.0738,91.74199999999999,86,90,2.83,TH,1715229385
447,sherbakul',54.6316,72.3963,67.62200000000004,44,100,10.07,RU,1715229385
448,nogliki,51.8333,143.1667,49.33399999999999,47,17,4.92,RU,1715229386
449,mossel bay,-34.1831,22.146,53.52800000000006,81,0,0.92,ZA,1715229386
450,irymple,-34.25,142.1667,73.09400000000008,53,100,3.84,AU,1715229386
451,veraval,20.9,70.3667,85.49600000000005,63,0,4.89,IN,1715229386
452,orosei,40.3798,9.6929,58.78399999999999,86,100,3.74,IT,1715229386
453,nuku'alofa,-21.1333,-175.2,77.342,65,40,3.09,TO,1715229386
454,la sarre,48.8002,-79.1996,42.458000000000006,71,99,4.35,CA,1715229228
455,nemuro,43.3236,145.575,39.2,75,78,4.13,JP,1715229387
456,kiama,-34.6833,150.8667,63.44600000000005,81,100,2.21,AU,1715229387
457,la'ie,21.6477,-157.9253,78.76400000000004,78,28,2.68,US,1715229387
458,ambon,-3.6954,128.1814,87.94400000000007,66,40,1.54,ID,1715229292
459,hacienda huancane,-15.8222,-70.8856,42.09800000000003,54,95,1.79,PE,1715229388
460,smithers,54.7804,-127.1743,52.12400000000001,43,0,2.06,CA,1715229309
461,champerico,14.3,-91.9167,85.22600000000008,70,88,3.21,GT,1715229388
462,cumbum,9.7333,77.3,90.35600000000002,50,67,1.66,IN,1715229388
463,hanceville,34.0607,-86.7675,78.71000000000008,94,39,3.83,US,1715229388
464,quiberon,47.4841,-3.1196,55.202000000000076,80,52,7.7,FR,1715229389
465,batticaloa,7.7102,81.6924,88.44800000000002,63,100,2.02,LK,1715229389
466,chui,-33.6971,-53.4616,52.71800000000009,84,51,5.14,UY,1715229389
467,iringa,-7.7667,35.7,61.91600000000001,82,75,1.54,TZ,1715229389
468,arkhangel'sk,64.5401,40.5433,28.13000000000004,80,75,6.0,RU,1715229389
469,guanare,9.0418,-69.7421,77.57600000000009,75,99,1.7,VE,1715229389
470,sinabang,2.4803,96.3801,87.566,67,63,1.35,ID,1715229389
471,bang len,14.0219,100.1718,94.94600000000005,34,35,5.05,TH,1715229390
472,markova,48.6758,24.4138,47.78600000000007,82,99,1.3,UA,1715229390
473,senanga,-16.1167,23.2667,56.73200000000001,44,10,2.68,ZM,1715229390
474,cedar city,37.6775,-113.0619,41.97200000000004,42,0,5.14,US,1715229390
475,charters towers,-20.1,146.2667,81.12200000000004,39,94,6.33,AU,1715229379
476,gaigeturi,33.4644,126.3183,64.45400000000005,63,0,4.12,KR,1715229390
477,college,64.8569,-147.8028,59.45,44,75,5.66,US,1715229391
478,kaufman,32.589,-96.3089,77.108,88,75,2.06,US,1715229371
479,ust'-kulom,61.6864,53.6902,30.59600000000005,73,97,5.1,RU,1715229391
480,taoudenni,22.6783,-3.9836,86.01800000000009,7,9,1.83,ML,1715229391
481,bychawa,51.0161,22.533,52.52000000000006,68,99,2.54,PL,1715229391
482,borda da mata,-22.2742,-46.1653,59.82800000000007,91,1,0.88,BR,1715229387
483,awjilah,29.1081,21.2869,73.09400000000008,36,0,4.46,LY,1715229392
484,tayu,-6.5397,111.0518,87.53000000000004,61,100,3.04,ID,1715229392
485,garbahaarrey,3.3289,42.2209,80.09600000000005,75,16,7.02,SO,1715229392
486,zilupe,56.3862,28.1217,34.80800000000001,38,93,1.39,LV,1715229392
487,hinesville,31.8469,-81.5959,78.76400000000004,63,0,2.06,US,1715229213
488,saint-philippe,-21.3585,55.7679,76.58600000000007,79,62,7.3,RE,1715229392
489,angaur state,6.906,134.13,83.984,71,22,3.02,PW,1715229393
490,borzya,50.3833,116.5167,65.21000000000008,14,100,7.82,RU,1715229140
491,christchurch,-43.5333,172.6333,49.31600000000001,59,20,2.57,NZ,1715229393
492,caxias,38.7031,-9.2767,66.14600000000004,64,0,2.57,PT,1715229393
493,polyarnyy,69.1989,33.4478,26.15,88,98,1.3,RU,1715229393
494,agat village,13.3886,144.6585,87.908,80,100,6.69,GU,1715229394
495,weyburn,49.6668,-103.8511,53.81600000000001,66,100,0.51,CA,1715229394
496,khandyga,62.6667,135.6,39.092,89,100,3.05,RU,1715229394
497,verkhniye kigi,55.4083,58.6044,39.812000000000054,62,89,7.1,RU,1715229394
498,tortoli,39.9256,9.6572,60.13399999999999,88,100,17.49,IT,1715229394
499,sisimiut,66.9395,-53.6735,20.930000000000042,80,25,3.47,GL,1715229395
500,zouerate,22.7187,-12.4521,82.85,10,100,1.96,MR,1715229395
501,katsuura,35.1333,140.3,59.018000000000086,64,97,7.77,JP,1715229395
502,purwakarta,-6.5569,107.4433,87.33200000000002,63,12,2.29,ID,1715229395
503,moyo,3.6609,31.7247,70.592,85,82,2.04,UG,1715229395
504,piti village,13.4626,144.6933,87.85400000000006,79,100,6.69,GU,1715229395
505,huinca renanco,-34.8404,-64.3758,43.268000000000086,39,0,2.59,AR,1715229396
506,nishon tumani,38.694,65.6751,66.45200000000008,77,100,10.29,UZ,1715229396
507,sumberpucung,-8.1586,112.4829,87.51200000000006,60,100,2.46,ID,1715229396
508,tougan,13.0667,-3.0667,87.53000000000004,39,58,3.0,BF,1715229396
509,khamis mushait,18.3064,42.7292,69.04400000000007,63,0,2.06,SA,1715229396
510,baganga,7.5739,126.56,87.42200000000004,66,88,3.25,PH,1715229396
511,thurso,58.5927,-3.5259,53.852000000000075,86,100,5.49,GB,1715229298
512,khaga,25.7833,81.1167,98.24000000000002,26,19,3.96,IN,1715229397
513,mossendjo,-2.9506,12.7261,70.7,100,100,1.49,CG,1715229397
514,vangviang,18.9333,102.45,89.816,48,12,1.77,LA,1715229397
515,urzhar,47.093,81.6294,76.91000000000008,23,0,4.35,KZ,1715229397
516,shijiazhuang,38.0414,114.4786,80.45600000000003,14,0,5.84,CN,1715229398
517,cannonvale,-20.2833,148.7,75.57800000000006,75,100,6.67,AU,1715229398
518,papao,-17.75,-149.55,80.2760000000001,81,75,8.59,PF,1715229398
519,levelland,33.5873,-102.378,71.96000000000008,15,3,1.84,US,1715229398
520,armacao de buzios,-22.7469,-41.8817,77.05400000000006,94,24,6.07,BR,1715229398
521,yeniseysk,58.4497,92.1703,40.94600000000005,84,100,3.58,RU,1715229398
522,timbuktu,16.7735,-3.0074,90.21200000000006,7,70,2.64,ML,1715229399
523,helsinki,60.1695,24.9355,39.110000000000085,58,0,3.58,FI,1715229399
524,cuito,-12.3833,16.9333,58.11800000000009,92,45,1.15,AO,1715229399
525,kitee,62.1,30.15,32.57600000000009,57,3,3.23,FI,1715229399
526,tinajo,29.0788,-13.7081,67.08200000000002,77,0,9.26,ES,1715229399
527,guerrero negro,27.9769,-114.0611,59.378000000000064,82,0,5.97,MX,1715229197
528,broken hill,-31.95,141.4333,63.48200000000001,69,100,4.17,AU,1715229400
529,antsiranana,-12.2787,49.2917,75.95600000000003,73,20,6.17,MG,1715229400
530,olyokminsk,60.3736,120.4264,41.99000000000002,50,100,3.72,RU,1715229400
531,priozersk,61.0393,30.1291,37.09400000000007,44,5,2.94,RU,1715229328
532,leua,48.2156,18.6071,56.498000000000026,83,82,1.49,SK,1715229401
533,turaif,31.6725,38.6637,61.05200000000008,29,0,5.14,SA,1715229401
534,lhokseumawe,5.1801,97.1507,88.358,62,97,3.11,ID,1715229401
535,presidencia de la plaza,-27.0015,-59.8424,54.662000000000056,63,3,3.89,AR,1715229401
536,forster,-32.1667,152.5167,70.37600000000009,73,87,4.07,AU,1715229401
537,bikin,46.8161,134.26,63.733999999999995,20,30,5.6,RU,1715229402
538,santa marta,11.2408,-74.199,84.88399999999999,79,40,2.06,CO,1715229279
539,arapgir,39.0412,38.4952,59.12600000000009,39,6,0.25,TR,1715229402
540,nieuw amsterdam,5.8833,-55.0833,78.96200000000006,88,85,3.36,SR,1715229402
541,cill airne,52.05,-9.5167,47.912000000000056,92,100,1.81,IE,1715229402
542,phayakkhaphum phisai,15.5163,103.1937,93.72200000000004,38,73,1.4,TH,1715229402
543,kayangel,8.0823,134.7173,83.93000000000004,73,55,4.44,PW,1715229403
544,waddan,29.1614,16.139,63.05,77,2,6.57,LY,1715229403
545,qandala,11.472,49.8728,90.21200000000006,62,99,2.72,SO,1715229403
546,kachia,9.8667,7.95,76.47800000000007,71,100,2.06,NG,1715229403
547,anchorage,61.2181,-149.9003,47.641999999999996,89,100,7.2,US,1715229129
548,okhotsk,59.3833,143.3,35.708000000000006,76,100,3.49,RU,1715229140
549,happy valley-goose bay,53.3168,-60.3315,34.10600000000003,69,100,3.6,CA,1715229404
550,kiruna,67.8557,20.2251,29.318000000000087,80,100,3.6,SE,1715229404
551,lhasa,29.65,91.1,53.168000000000085,46,100,2.98,CN,1715229404
552,labytnangi,66.6572,66.4183,21.38000000000004,92,100,10.9,RU,1715229404
553,val-d'or,48.1002,-77.7828,48.29000000000002,61,100,4.12,CA,1715229405
554,santo angelo,-28.2992,-54.2631,58.38800000000005,98,26,3.02,BR,1715229405
555,zeya,53.75,127.2667,46.49000000000002,37,6,7.14,RU,1715229405
556,telimele,10.9167,-13.3333,72.77000000000007,94,84,0.71,GN,1715229405
557,yuzhno-kurilsk,44.0306,145.8556,37.38200000000002,95,97,4.41,RU,1715229405
558,valley,45.1277,-116.1262,34.412000000000056,95,40,2.92,US,1715229405
559,battagram,34.6772,73.0233,84.65,33,1,1.56,PK,1715229405
560,baikonur,45.6167,63.3167,65.53399999999999,51,61,9.93,KZ,1715229406
561,balaghat,21.8,80.1833,95.37800000000007,27,53,3.83,IN,1715229406
562,ballina,-28.8667,153.5667,67.78399999999999,70,95,6.75,AU,1715229406
563,nguigmi,14.2495,13.1092,85.85600000000002,19,7,4.33,NE,1715229406
564,ulladulla,-35.35,150.4667,64.34600000000005,77,89,1.11,AU,1715229406
565,aripuana,-9.1667,-60.6333,78.85400000000006,80,67,0.36,BR,1715229407
566,moree,-29.4667,149.85,75.68600000000006,39,90,3.87,AU,1715229407
567,sinop,41.7711,34.8709,62.87000000000006,51,46,1.24,TR,1715229407
568,shache,38.4167,77.2406,87.15200000000007,11,40,2.05,CN,1715229407
569,talakan,50.3167,130.3667,57.16400000000003,18,26,8.63,RU,1715229407
570,mende,44.6667,3.5,40.820000000000064,91,72,3.76,FR,1715229408
571,geraldton,-28.7667,114.6,86.41400000000003,19,100,7.2,AU,1715229408
572,taungdwingyi,20.0167,95.55,99.64400000000008,28,30,2.79,MM,1715229408
573,bastrop,32.7562,-91.8724,78.81800000000008,87,0,1.54,US,1715229408
